{
   "plus_code" : {
      "compound_code" : "QG6H+8P Bangkok, Thailand",
      "global_code" : "7P52QG6H+8P"
   },
   "results" : [
      {
         "address_components" : [
            {
               "long_name" : "75/4",
               "short_name" : "75/4",
               "types" : [ "street_number" ]
            },
            {
               "long_name" : "Yothi Alley",
               "short_name" : "Yothi Alley",
               "types" : [ "route" ]
            },
            {
               "long_name" : "Khwaeng Thung Phaya Thai",
               "short_name" : "Khwaeng Thung Phaya Thai",
               "types" : [ "political", "sublocality", "sublocality_level_2" ]
            },
            {
               "long_name" : "Khet Ratchathewi",
               "short_name" : "Khet Ratchathewi",
               "types" : [ "political", "sublocality", "sublocality_level_1" ]
            },
            {
               "long_name" : "Krung Thep Maha Nakhon",
               "short_name" : "Krung Thep Maha Nakhon",
               "types" : [ "administrative_area_level_1", "political" ]
            },
            {
               "long_name" : "Thailand",
               "short_name" : "TH",
               "types" : [ "country", "political" ]
            },
            {
               "long_name" : "10400",
               "short_name" : "10400",
               "types" : [ "postal_code" ]
            }
         ],
         "formatted_address" : "75/4 Yothi Alley, Khwaeng Thung Phaya Thai, Khet Ratchathewi, Krung Thep Maha Nakhon 10400, Thailand",
         "geometry" : {
            "location" : {
               "lat" : 13.7617063,
               "lng" : 100.5295513
            },
            "location_type" : "ROOFTOP",
            "viewport" : {
               "northeast" : {
                  "lat" : 13.7630552802915,
                  "lng" : 100.5309002802915
               },
               "southwest" : {
                  "lat" : 13.7603573197085,
                  "lng" : 100.5282023197085
               }
            }
         },
         "place_id" : "ChIJt1D2KUuZ4jARe6m6hcuZTog",
         "plus_code" : {
            "compound_code" : "QG6H+MR Bangkok, Thailand",
            "global_code" : "7P52QG6H+MR"
         },
         "types" : [ "establishment", "point_of_interest" ]
      },
      {
         "address_components" : [
            {
               "long_name" : "75/3306",
               "short_name" : "75/3306",
               "types" : [ "street_number" ]
            },
            {
               "long_name" : "Thanon Si Ayutthaya",
               "short_name" : "Thanon Si Ayutthaya",
               "types" : [ "route" ]
            },
            {
               "long_name" : "Khwaeng Thung Phaya Thai",
               "short_name" : "Khwaeng Thung Phaya Thai",
               "types" : [ "political", "sublocality", "sublocality_level_2" ]
            },
            {
               "long_name" : "Khet Ratchathewi",
               "short_name" : "Khet Ratchathewi",
               "types" : [ "political", "sublocality", "sublocality_level_1" ]
            },
            {
               "long_name" : "Krung Thep Maha Nakhon",
               "short_name" : "Krung Thep Maha Nakhon",
               "types" : [ "administrative_area_level_1", "political" ]
            },
            {
               "long_name" : "Thailand",
               "short_name" : "TH",
               "types" : [ "country", "political" ]
            },
            {
               "long_name" : "10400",
               "short_name" : "10400",
               "types" : [ "postal_code" ]
            }
         ],
         "formatted_address" : "75/3306 Thanon Si Ayutthaya, Khwaeng Thung Phaya Thai, Khet Ratchathewi, Krung Thep Maha Nakhon 10400, Thailand",
         "geometry" : {
            "location" : {
               "lat" : 13.7610452,
               "lng" : 100.5295656
            },
            "location_type" : "ROOFTOP",
            "viewport" : {
               "northeast" : {
                  "lat" : 13.7623941802915,
                  "lng" : 100.5309145802915
               },
               "southwest" : {
                  "lat" : 13.7596962197085,
                  "lng" : 100.5282166197085
               }
            }
         },
         "place_id" : "ChIJL_WSzLSe4jARLGYYu14tL-w",
         "plus_code" : {
            "compound_code" : "QG6H+CR Bangkok, Thailand",
            "global_code" : "7P52QG6H+CR"
         },
         "types" : [ "street_address" ]
      },
      {
         "address_components" : [
            {
               "long_name" : "132",
               "short_name" : "132",
               "types" : [ "street_number" ]
            },
            {
               "long_name" : "Thanon Si Ayutthaya Frontage",
               "short_name" : "Thanon Si Ayutthaya Frontage",
               "types" : [ "route" ]
            },
            {
               "long_name" : "Khwaeng Thung Phaya Thai",
               "short_name" : "Khwaeng Thung Phaya Thai",
               "types" : [ "political", "sublocality", "sublocality_level_2" ]
            },
            {
               "long_name" : "Khet Ratchathewi",
               "short_name" : "Khet Ratchathewi",
               "types" : [ "political", "sublocality", "sublocality_level_1" ]
            },
            {
               "long_name" : "Krung Thep Maha Nakhon",
               "short_name" : "Krung Thep Maha Nakhon",
               "types" : [ "administrative_area_level_1", "political" ]
            },
            {
               "long_name" : "Thailand",
               "short_name" : "TH",
               "types" : [ "country", "political" ]
            },
            {
               "long_name" : "10400",
               "short_name" : "10400",
               "types" : [ "postal_code" ]
            }
         ],
         "formatted_address" : "132 Thanon Si Ayutthaya Frontage, Khwaeng Thung Phaya Thai, Khet Ratchathewi, Krung Thep Maha Nakhon 10400, Thailand",
         "geometry" : {
            "location" : {
               "lat" : 13.7603371,
               "lng" : 100.5292366
            },
            "location_type" : "RANGE_INTERPOLATED",
            "viewport" : {
               "northeast" : {
                  "lat" : 13.7616860802915,
                  "lng" : 100.5305855802915
               },
               "southwest" : {
                  "lat" : 13.7589881197085,
                  "lng" : 100.5278876197085
               }
            }
         },
         "place_id" : "EnQxMzIgVGhhbm9uIFNpIEF5dXR0aGF5YSBGcm9udGFnZSwgS2h3YWVuZyBUaHVuZyBQaGF5YSBUaGFpLCBLaGV0IFJhdGNoYXRoZXdpLCBLcnVuZyBUaGVwIE1haGEgTmFraG9uIDEwNDAwLCBUaGFpbGFuZCIbEhkKFAoSCRkHddZKmeIwEXK5mP2icDCrEIQB",
         "types" : [ "street_address" ]
      },
      {
         "address_components" : [
            {
               "long_name" : "Thanon Si Ayutthaya Frontage",
               "short_name" : "Thanon Si Ayutthaya Frontage",
               "types" : [ "route" ]
            },
            {
               "long_name" : "Khwaeng Thung Phaya Thai",
               "short_name" : "Khwaeng Thung Phaya Thai",
               "types" : [ "political", "sublocality", "sublocality_level_2" ]
            },
            {
               "long_name" : "Khet Ratchathewi",
               "short_name" : "Khet Ratchathewi",
               "types" : [ "political", "sublocality", "sublocality_level_1" ]
            },
            {
               "long_name" : "Krung Thep Maha Nakhon",
               "short_name" : "Krung Thep Maha Nakhon",
               "types" : [ "administrative_area_level_1", "political" ]
            },
            {
               "long_name" : "Thailand",
               "short_name" : "TH",
               "types" : [ "country", "political" ]
            },
            {
               "long_name" : "10400",
               "short_name" : "10400",
               "types" : [ "postal_code" ]
            }
         ],
         "formatted_address" : "Thanon Si Ayutthaya Frontage, Khwaeng Thung Phaya Thai, Khet Ratchathewi, Krung Thep Maha Nakhon 10400, Thailand",
         "geometry" : {
            "bounds" : {
               "northeast" : {
                  "lat" : 13.7604504,
                  "lng" : 100.5295157
               },
               "southwest" : {
                  "lat" : 13.7602109,
                  "lng" : 100.5289858
               }
            },
            "location" : {
               "lat" : 13.7603307,
               "lng" : 100.5292508
            },
            "location_type" : "GEOMETRIC_CENTER",
            "viewport" : {
               "northeast" : {
                  "lat" : 13.7616796302915,
                  "lng" : 100.5305997302915
               },
               "southwest" : {
                  "lat" : 13.7589816697085,
                  "lng" : 100.5279017697085
               }
            }
         },
         "place_id" : "ChIJGQd11kqZ4jARc7mY_aJwMKs",
         "types" : [ "route" ]
      },
      {
         "address_components" : [
            {
               "long_name" : "Thung Phaya Thai",
               "short_name" : "Thung Phaya Thai",
               "types" : [ "political", "sublocality", "sublocality_level_2" ]
            },
            {
               "long_name" : "Ratchathewi",
               "short_name" : "Ratchathewi",
               "types" : [ "political", "sublocality", "sublocality_level_1" ]
            },
            {
               "long_name" : "Bangkok",
               "short_name" : "Bangkok",
               "types" : [ "administrative_area_level_1", "political" ]
            },
            {
               "long_name" : "Thailand",
               "short_name" : "TH",
               "types" : [ "country", "political" ]
            },
            {
               "long_name" : "10400",
               "short_name" : "10400",
               "types" : [ "postal_code" ]
            }
         ],
         "formatted_address" : "Thung Phaya Thai, Ratchathewi, Bangkok 10400, Thailand",
         "geometry" : {
            "bounds" : {
               "northeast" : {
                  "lat" : 13.7742449,
                  "lng" : 100.5388136
               },
               "southwest" : {
                  "lat" : 13.7531829,
                  "lng" : 100.520817
               }
            },
            "location" : {
               "lat" : 13.7605358,
               "lng" : 100.5267991
            },
            "location_type" : "APPROXIMATE",
            "viewport" : {
               "northeast" : {
                  "lat" : 13.7742449,
                  "lng" : 100.5388136
               },
               "southwest" : {
                  "lat" : 13.7531829,
                  "lng" : 100.520817
               }
            }
         },
         "place_id" : "ChIJDw2ZUrOe4jARcI_iXbIAAQQ",
         "types" : [ "political", "sublocality", "sublocality_level_2" ]
      },
      {
         "address_components" : [
            {
               "long_name" : "Ratchathewi",
               "short_name" : "Ratchathewi",
               "types" : [ "political", "sublocality", "sublocality_level_1" ]
            },
            {
               "long_name" : "Bangkok",
               "short_name" : "Bangkok",
               "types" : [ "administrative_area_level_1", "political" ]
            },
            {
               "long_name" : "Thailand",
               "short_name" : "TH",
               "types" : [ "country", "political" ]
            }
         ],
         "formatted_address" : "Ratchathewi, Bangkok, Thailand",
         "geometry" : {
            "bounds" : {
               "northeast" : {
                  "lat" : 13.7742449,
                  "lng" : 100.5648528
               },
               "southwest" : {
                  "lat" : 13.7477764,
                  "lng" : 100.5190604
               }
            },
            "location" : {
               "lat" : 13.7543361,
               "lng" : 100.5380494
            },
            "location_type" : "APPROXIMATE",
            "viewport" : {
               "northeast" : {
                  "lat" : 13.7742449,
                  "lng" : 100.5648528
               },
               "southwest" : {
                  "lat" : 13.7477764,
                  "lng" : 100.5190604
               }
            }
         },
         "place_id" : "ChIJtRHqw7me4jAR0E_iXbIAAQM",
         "types" : [ "political", "sublocality", "sublocality_level_1" ]
      },
      {
         "address_components" : [
            {
               "long_name" : "10400",
               "short_name" : "10400",
               "types" : [ "postal_code" ]
            },
            {
               "long_name" : "Bangkok",
               "short_name" : "Bangkok",
               "types" : [ "administrative_area_level_1", "political" ]
            },
            {
               "long_name" : "Thailand",
               "short_name" : "TH",
               "types" : [ "country", "political" ]
            }
         ],
         "formatted_address" : "Bangkok 10400, Thailand",
         "geometry" : {
            "bounds" : {
               "northeast" : {
                  "lat" : 13.8011299,
                  "lng" : 100.57487
               },
               "southwest" : {
                  "lat" : 13.747993,
                  "lng" : 100.518899
               }
            },
            "location" : {
               "lat" : 13.7739818,
               "lng" : 100.546488
            },
            "location_type" : "APPROXIMATE",
            "viewport" : {
               "northeast" : {
                  "lat" : 13.8011299,
                  "lng" : 100.57487
               },
               "southwest" : {
                  "lat" : 13.747993,
                  "lng" : 100.518899
               }
            }
         },
         "place_id" : "ChIJGw348qOe4jARwH9DebUAARw",
         "types" : [ "postal_code" ]
      },
      {
         "address_components" : [
            {
               "long_name" : "Bangkok",
               "short_name" : "กทม",
               "types" : [ "locality", "political" ]
            },
            {
               "long_name" : "Thailand",
               "short_name" : "TH",
               "types" : [ "country", "political" ]
            }
         ],
         "formatted_address" : "Bangkok, Thailand",
         "geometry" : {
            "bounds" : {
               "northeast" : {
                  "lat" : 13.955111,
                  "lng" : 100.938408
               },
               "southwest" : {
                  "lat" : 13.4940881,
                  "lng" : 100.3278136
               }
            },
            "location" : {
               "lat" : 13.7563309,
               "lng" : 100.5017651
            },
            "location_type" : "APPROXIMATE",
            "viewport" : {
               "northeast" : {
                  "lat" : 13.955111,
                  "lng" : 100.938408
               },
               "southwest" : {
                  "lat" : 13.4940881,
                  "lng" : 100.3278136
               }
            }
         },
         "place_id" : "ChIJ82ENKDJgHTERIEjiXbIAAQE",
         "types" : [ "locality", "political" ]
      },
      {
         "address_components" : [
            {
               "long_name" : "Bangkok",
               "short_name" : "Bangkok",
               "types" : [ "administrative_area_level_1", "political" ]
            },
            {
               "long_name" : "Thailand",
               "short_name" : "TH",
               "types" : [ "country", "political" ]
            }
         ],
         "formatted_address" : "Bangkok, Thailand",
         "geometry" : {
            "bounds" : {
               "northeast" : {
                  "lat" : 13.9551109,
                  "lng" : 100.9384077
               },
               "southwest" : {
                  "lat" : 13.4940881,
                  "lng" : 100.3278136
               }
            },
            "location" : {
               "lat" : 13.82031,
               "lng" : 100.6647101
            },
            "location_type" : "APPROXIMATE",
            "viewport" : {
               "northeast" : {
                  "lat" : 13.9551109,
                  "lng" : 100.9384077
               },
               "southwest" : {
                  "lat" : 13.4940881,
                  "lng" : 100.3278136
               }
            }
         },
         "place_id" : "ChIJ82ENKDJgHTERxw-LhWOFRTY",
         "types" : [ "administrative_area_level_1", "political" ]
      },
      {
         "address_components" : [
            {
               "long_name" : "Thailand",
               "short_name" : "TH",
               "types" : [ "country", "political" ]
            }
         ],
         "formatted_address" : "Thailand",
         "geometry" : {
            "bounds" : {
               "northeast" : {
                  "lat" : 20.465143,
                  "lng" : 105.636812
               },
               "southwest" : {
                  "lat" : 5.613038,
                  "lng" : 97.343396
               }
            },
            "location" : {
               "lat" : 15.870032,
               "lng" : 100.992541
            },
            "location_type" : "APPROXIMATE",
            "viewport" : {
               "northeast" : {
                  "lat" : 20.465143,
                  "lng" : 105.636812
               },
               "southwest" : {
                  "lat" : 5.613038,
                  "lng" : 97.343396
               }
            }
         },
         "place_id" : "ChIJsU1CR_eNTTARAuhXB4gs154",
         "types" : [ "country", "political" ]
      }
   ],
   "status" : "OK"
}
