{
   "plus_code" : {
      "compound_code" : "VG4P+7H Nonthaburi, Mueang Nonthaburi District, Nonthaburi, Thailand",
      "global_code" : "7P52VG4P+7H"
   },
   "results" : [
      {
         "address_components" : [
            {
               "long_name" : "95/3",
               "short_name" : "95/3",
               "types" : [ "street_number" ]
            },
            {
               "long_name" : "Soi Ngam Wong Wan 12",
               "short_name" : "Soi Ngam Wong Wan 12",
               "types" : [ "route" ]
            },
            {
               "long_name" : "Tambon Bang Khen",
               "short_name" : "ต.บางเขน",
               "types" : [ "political", "sublocality", "sublocality_level_1" ]
            },
            {
               "long_name" : "Amphoe Mueang Nonthaburi",
               "short_name" : "Amphoe Mueang Nonthaburi",
               "types" : [ "administrative_area_level_2", "political" ]
            },
            {
               "long_name" : "Chang Wat Nonthaburi",
               "short_name" : "จ.นนทบุรี",
               "types" : [ "administrative_area_level_1", "political" ]
            },
            {
               "long_name" : "Thailand",
               "short_name" : "TH",
               "types" : [ "country", "political" ]
            },
            {
               "long_name" : "11000",
               "short_name" : "11000",
               "types" : [ "postal_code" ]
            }
         ],
         "formatted_address" : "95/3 Soi Ngam Wong Wan 12, Tambon Bang Khen, Amphoe Mueang Nonthaburi, Chang Wat Nonthaburi 11000, Thailand",
         "geometry" : {
            "location" : {
               "lat" : 13.8554403,
               "lng" : 100.5363327
            },
            "location_type" : "ROOFTOP",
            "viewport" : {
               "northeast" : {
                  "lat" : 13.8567892802915,
                  "lng" : 100.5376816802915
               },
               "southwest" : {
                  "lat" : 13.8540913197085,
                  "lng" : 100.5349837197085
               }
            }
         },
         "place_id" : "ChIJvzx9EaSc4jAR5kEj5w5Txd8",
         "plus_code" : {
            "compound_code" : "VG4P+5G Nonthaburi, Mueang Nonthaburi District, Nonthaburi, Thailand",
            "global_code" : "7P52VG4P+5G"
         },
         "types" : [ "street_address" ]
      },
      {
         "address_components" : [
            {
               "long_name" : "95",
               "short_name" : "95",
               "types" : [ "street_number" ]
            },
            {
               "long_name" : "Soi Ngam Wong Wan 12",
               "short_name" : "Soi Ngam Wong Wan 12",
               "types" : [ "route" ]
            },
            {
               "long_name" : "Tambon Bang Khen",
               "short_name" : "ต.บางเขน",
               "types" : [ "political", "sublocality", "sublocality_level_1" ]
            },
            {
               "long_name" : "Amphoe Mueang Nonthaburi",
               "short_name" : "Amphoe Mueang Nonthaburi",
               "types" : [ "administrative_area_level_2", "political" ]
            },
            {
               "long_name" : "Chang Wat Nonthaburi",
               "short_name" : "จ.นนทบุรี",
               "types" : [ "administrative_area_level_1", "political" ]
            },
            {
               "long_name" : "Thailand",
               "short_name" : "TH",
               "types" : [ "country", "political" ]
            },
            {
               "long_name" : "11000",
               "short_name" : "11000",
               "types" : [ "postal_code" ]
            }
         ],
         "formatted_address" : "95 Soi Ngam Wong Wan 12, Tambon Bang Khen, Amphoe Mueang Nonthaburi, Chang Wat Nonthaburi 11000, Thailand",
         "geometry" : {
            "location" : {
               "lat" : 13.8553833,
               "lng" : 100.5362059
            },
            "location_type" : "RANGE_INTERPOLATED",
            "viewport" : {
               "northeast" : {
                  "lat" : 13.8567322802915,
                  "lng" : 100.5375548802915
               },
               "southwest" : {
                  "lat" : 13.8540343197085,
                  "lng" : 100.5348569197085
               }
            }
         },
         "place_id" : "Emk5NSBTb2kgTmdhbSBXb25nIFdhbiAxMiwgVGFtYm9uIEJhbmcgS2hlbiwgQW1waG9lIE11ZWFuZyBOb250aGFidXJpLCBDaGFuZyBXYXQgTm9udGhhYnVyaSAxMTAwMCwgVGhhaWxhbmQiGhIYChQKEgkFNwIOpJziMBHpCC04qXTGzBBf",
         "types" : [ "street_address" ]
      },
      {
         "address_components" : [
            {
               "long_name" : "Soi Ngam Wong Wan 16",
               "short_name" : "Soi Ngam Wong Wan 16",
               "types" : [ "route" ]
            },
            {
               "long_name" : "Tambon Bang Khen",
               "short_name" : "ต.บางเขน",
               "types" : [ "political", "sublocality", "sublocality_level_1" ]
            },
            {
               "long_name" : "Amphoe Mueang Nonthaburi",
               "short_name" : "Amphoe Mueang Nonthaburi",
               "types" : [ "administrative_area_level_2", "political" ]
            },
            {
               "long_name" : "Chang Wat Nonthaburi",
               "short_name" : "จ.นนทบุรี",
               "types" : [ "administrative_area_level_1", "political" ]
            },
            {
               "long_name" : "Thailand",
               "short_name" : "TH",
               "types" : [ "country", "political" ]
            },
            {
               "long_name" : "11000",
               "short_name" : "11000",
               "types" : [ "postal_code" ]
            }
         ],
         "formatted_address" : "Soi Ngam Wong Wan 16, Tambon Bang Khen, Amphoe Mueang Nonthaburi, Chang Wat Nonthaburi 11000, Thailand",
         "geometry" : {
            "bounds" : {
               "northeast" : {
                  "lat" : 13.855756,
                  "lng" : 100.536501
               },
               "southwest" : {
                  "lat" : 13.8554061,
                  "lng" : 100.5361425
               }
            },
            "location" : {
               "lat" : 13.8556379,
               "lng" : 100.5362309
            },
            "location_type" : "GEOMETRIC_CENTER",
            "viewport" : {
               "northeast" : {
                  "lat" : 13.8569300302915,
                  "lng" : 100.5376707302915
               },
               "southwest" : {
                  "lat" : 13.8542320697085,
                  "lng" : 100.5349727697085
               }
            }
         },
         "place_id" : "ChIJi7AIFKSc4jARhsdistGcqVE",
         "types" : [ "route" ]
      },
      {
         "address_components" : [
            {
               "long_name" : "Bang Khen",
               "short_name" : "ต.บางเขน",
               "types" : [ "political", "sublocality", "sublocality_level_1" ]
            },
            {
               "long_name" : "Mueang Nonthaburi District",
               "short_name" : "Mueang Nonthaburi District",
               "types" : [ "administrative_area_level_2", "political" ]
            },
            {
               "long_name" : "Nonthaburi",
               "short_name" : "จ.นนทบุรี",
               "types" : [ "administrative_area_level_1", "political" ]
            },
            {
               "long_name" : "Thailand",
               "short_name" : "TH",
               "types" : [ "country", "political" ]
            }
         ],
         "formatted_address" : "Bang Khen, Mueang Nonthaburi District, Nonthaburi, Thailand",
         "geometry" : {
            "bounds" : {
               "northeast" : {
                  "lat" : 13.8714488,
                  "lng" : 100.5485184
               },
               "southwest" : {
                  "lat" : 13.8234125,
                  "lng" : 100.5020472
               }
            },
            "location" : {
               "lat" : 13.8545322,
               "lng" : 100.5352367
            },
            "location_type" : "APPROXIMATE",
            "viewport" : {
               "northeast" : {
                  "lat" : 13.8714488,
                  "lng" : 100.5485184
               },
               "southwest" : {
                  "lat" : 13.8234125,
                  "lng" : 100.5020472
               }
            }
         },
         "place_id" : "ChIJnXX2wmCb4jARsJQMRTeSAQQ",
         "types" : [ "political", "sublocality", "sublocality_level_1" ]
      },
      {
         "address_components" : [
            {
               "long_name" : "Nonthaburi",
               "short_name" : "Nonthaburi",
               "types" : [ "locality", "political" ]
            },
            {
               "long_name" : "Mueang Nonthaburi District",
               "short_name" : "Mueang Nonthaburi District",
               "types" : [ "administrative_area_level_2", "political" ]
            },
            {
               "long_name" : "Nonthaburi",
               "short_name" : "จ.นนทบุรี",
               "types" : [ "administrative_area_level_1", "political" ]
            },
            {
               "long_name" : "Thailand",
               "short_name" : "TH",
               "types" : [ "country", "political" ]
            }
         ],
         "formatted_address" : "Nonthaburi, Mueang Nonthaburi District, Nonthaburi, Thailand",
         "geometry" : {
            "bounds" : {
               "northeast" : {
                  "lat" : 13.8952042,
                  "lng" : 100.5503983
               },
               "southwest" : {
                  "lat" : 13.8161564,
                  "lng" : 100.4763022
               }
            },
            "location" : {
               "lat" : 13.8591084,
               "lng" : 100.5216508
            },
            "location_type" : "APPROXIMATE",
            "viewport" : {
               "northeast" : {
                  "lat" : 13.8952042,
                  "lng" : 100.5503983
               },
               "southwest" : {
                  "lat" : 13.8161564,
                  "lng" : 100.4763022
               }
            }
         },
         "place_id" : "ChIJR511rmub4jAR-jOp5dz_bKk",
         "types" : [ "locality", "political" ]
      },
      {
         "address_components" : [
            {
               "long_name" : "11000",
               "short_name" : "11000",
               "types" : [ "postal_code" ]
            },
            {
               "long_name" : "Mueang Nonthaburi District",
               "short_name" : "Mueang Nonthaburi District",
               "types" : [ "administrative_area_level_2", "political" ]
            },
            {
               "long_name" : "Nonthaburi",
               "short_name" : "จ.นนทบุรี",
               "types" : [ "administrative_area_level_1", "political" ]
            },
            {
               "long_name" : "Thailand",
               "short_name" : "TH",
               "types" : [ "country", "political" ]
            }
         ],
         "formatted_address" : "Mueang Nonthaburi District, Nonthaburi 11000, Thailand",
         "geometry" : {
            "bounds" : {
               "northeast" : {
                  "lat" : 13.894391,
                  "lng" : 100.550195
               },
               "southwest" : {
                  "lat" : 13.824767,
                  "lng" : 100.430301
               }
            },
            "location" : {
               "lat" : 13.8658492,
               "lng" : 100.4941285
            },
            "location_type" : "APPROXIMATE",
            "viewport" : {
               "northeast" : {
                  "lat" : 13.894391,
                  "lng" : 100.550195
               },
               "southwest" : {
                  "lat" : 13.824767,
                  "lng" : 100.430301
               }
            }
         },
         "place_id" : "ChIJ6_mnvyGb4jARgPswZTqSARw",
         "types" : [ "postal_code" ]
      },
      {
         "address_components" : [
            {
               "long_name" : "Mueang Nonthaburi District",
               "short_name" : "Mueang Nonthaburi District",
               "types" : [ "administrative_area_level_2", "political" ]
            },
            {
               "long_name" : "Nonthaburi",
               "short_name" : "จ.นนทบุรี",
               "types" : [ "administrative_area_level_1", "political" ]
            },
            {
               "long_name" : "Thailand",
               "short_name" : "TH",
               "types" : [ "country", "political" ]
            }
         ],
         "formatted_address" : "Mueang Nonthaburi District, Nonthaburi, Thailand",
         "geometry" : {
            "bounds" : {
               "northeast" : {
                  "lat" : 13.8952042,
                  "lng" : 100.5503983
               },
               "southwest" : {
                  "lat" : 13.8095597,
                  "lng" : 100.42701
               }
            },
            "location" : {
               "lat" : 13.862106,
               "lng" : 100.5143696
            },
            "location_type" : "APPROXIMATE",
            "viewport" : {
               "northeast" : {
                  "lat" : 13.8952042,
                  "lng" : 100.5503983
               },
               "southwest" : {
                  "lat" : 13.8095597,
                  "lng" : 100.42701
               }
            }
         },
         "place_id" : "ChIJ_VilvyGb4jAREFEMRTeSAQM",
         "types" : [ "administrative_area_level_2", "political" ]
      },
      {
         "address_components" : [
            {
               "long_name" : "Nonthaburi",
               "short_name" : "จ.นนทบุรี",
               "types" : [ "administrative_area_level_1", "political" ]
            },
            {
               "long_name" : "Thailand",
               "short_name" : "TH",
               "types" : [ "country", "political" ]
            }
         ],
         "formatted_address" : "Nonthaburi, Thailand",
         "geometry" : {
            "bounds" : {
               "northeast" : {
                  "lat" : 14.1403089,
                  "lng" : 100.5677219
               },
               "southwest" : {
                  "lat" : 13.7888688,
                  "lng" : 100.2623644
               }
            },
            "location" : {
               "lat" : 13.8621125,
               "lng" : 100.5143528
            },
            "location_type" : "APPROXIMATE",
            "viewport" : {
               "northeast" : {
                  "lat" : 14.1403089,
                  "lng" : 100.5677219
               },
               "southwest" : {
                  "lat" : 13.7888688,
                  "lng" : 100.2623644
               }
            }
         },
         "place_id" : "ChIJO6t2z8CE4jARpO5V399Gdpg",
         "types" : [ "administrative_area_level_1", "political" ]
      },
      {
         "address_components" : [
            {
               "long_name" : "Thailand",
               "short_name" : "TH",
               "types" : [ "country", "political" ]
            }
         ],
         "formatted_address" : "Thailand",
         "geometry" : {
            "bounds" : {
               "northeast" : {
                  "lat" : 20.465143,
                  "lng" : 105.636812
               },
               "southwest" : {
                  "lat" : 5.613038,
                  "lng" : 97.343396
               }
            },
            "location" : {
               "lat" : 15.870032,
               "lng" : 100.992541
            },
            "location_type" : "APPROXIMATE",
            "viewport" : {
               "northeast" : {
                  "lat" : 20.465143,
                  "lng" : 105.636812
               },
               "southwest" : {
                  "lat" : 5.613038,
                  "lng" : 97.343396
               }
            }
         },
         "place_id" : "ChIJsU1CR_eNTTARAuhXB4gs154",
         "types" : [ "country", "political" ]
      }
   ],
   "status" : "OK"
}
