{
   "plus_code" : {
      "compound_code" : "PGMV+2X Bangkok, Thailand",
      "global_code" : "7P52PGMV+2X"
   },
   "results" : [
      {
         "address_components" : [
            {
               "long_name" : "192",
               "short_name" : "192",
               "types" : [ "street_number" ]
            },
            {
               "long_name" : "Witthayu Road",
               "short_name" : "Witthayu Rd",
               "types" : [ "route" ]
            },
            {
               "long_name" : "Khwaeng Lumphini",
               "short_name" : "Khwaeng Lumphini",
               "types" : [ "political", "sublocality", "sublocality_level_2" ]
            },
            {
               "long_name" : "Khet Pathum Wan",
               "short_name" : "Khet Pathum Wan",
               "types" : [ "political", "sublocality", "sublocality_level_1" ]
            },
            {
               "long_name" : "Krung Thep Maha Nakhon",
               "short_name" : "Krung Thep Maha Nakhon",
               "types" : [ "administrative_area_level_1", "political" ]
            },
            {
               "long_name" : "Thailand",
               "short_name" : "TH",
               "types" : [ "country", "political" ]
            },
            {
               "long_name" : "10330",
               "short_name" : "10330",
               "types" : [ "postal_code" ]
            }
         ],
         "formatted_address" : "192 Witthayu Rd, Khwaeng Lumphini, Khet Pathum Wan, Krung Thep Maha Nakhon 10330, Thailand",
         "geometry" : {
            "location" : {
               "lat" : 13.7330391,
               "lng" : 100.545186
            },
            "location_type" : "ROOFTOP",
            "viewport" : {
               "northeast" : {
                  "lat" : 13.7343880802915,
                  "lng" : 100.5465349802915
               },
               "southwest" : {
                  "lat" : 13.7316901197085,
                  "lng" : 100.5438370197085
               }
            }
         },
         "place_id" : "ChIJW10_Qief4jARa7-5mq5oC6k",
         "plus_code" : {
            "compound_code" : "PGMW+63 Bangkok, Thailand",
            "global_code" : "7P52PGMW+63"
         },
         "types" : [ "street_address" ]
      },
      {
         "address_components" : [
            {
               "long_name" : "192",
               "short_name" : "192",
               "types" : [ "street_number" ]
            },
            {
               "long_name" : "Thanon Witthayu",
               "short_name" : "Thanon Witthayu",
               "types" : [ "route" ]
            },
            {
               "long_name" : "Khwaeng Lumphini",
               "short_name" : "Khwaeng Lumphini",
               "types" : [ "political", "sublocality", "sublocality_level_2" ]
            },
            {
               "long_name" : "Khet Pathum Wan",
               "short_name" : "Khet Pathum Wan",
               "types" : [ "political", "sublocality", "sublocality_level_1" ]
            },
            {
               "long_name" : "Krung Thep Maha Nakhon",
               "short_name" : "Krung Thep Maha Nakhon",
               "types" : [ "administrative_area_level_1", "political" ]
            },
            {
               "long_name" : "Thailand",
               "short_name" : "TH",
               "types" : [ "country", "political" ]
            },
            {
               "long_name" : "10330",
               "short_name" : "10330",
               "types" : [ "postal_code" ]
            }
         ],
         "formatted_address" : "192 Thanon Witthayu, Khwaeng Lumphini, Khet Pathum Wan, Krung Thep Maha Nakhon 10330, Thailand",
         "geometry" : {
            "location" : {
               "lat" : 13.7329274,
               "lng" : 100.5456119
            },
            "location_type" : "RANGE_INTERPOLATED",
            "viewport" : {
               "northeast" : {
                  "lat" : 13.7342763802915,
                  "lng" : 100.5469608802915
               },
               "southwest" : {
                  "lat" : 13.7315784197085,
                  "lng" : 100.5442629197085
               }
            }
         },
         "place_id" : "El4xOTIgVGhhbm9uIFdpdHRoYXl1LCBLaHdhZW5nIEx1bXBoaW5pLCBLaGV0IFBhdGh1bSBXYW4sIEtydW5nIFRoZXAgTWFoYSBOYWtob24gMTAzMzAsIFRoYWlsYW5kIhsSGQoUChIJ-3vTRSef4jARjg7H3FNdxCwQwAE",
         "types" : [ "street_address" ]
      },
      {
         "address_components" : [
            {
               "long_name" : "Thanon Witthayu",
               "short_name" : "Thanon Witthayu",
               "types" : [ "route" ]
            },
            {
               "long_name" : "Khwaeng Lumphini",
               "short_name" : "Khwaeng Lumphini",
               "types" : [ "political", "sublocality", "sublocality_level_2" ]
            },
            {
               "long_name" : "Khet Pathum Wan",
               "short_name" : "Khet Pathum Wan",
               "types" : [ "political", "sublocality", "sublocality_level_1" ]
            },
            {
               "long_name" : "Krung Thep Maha Nakhon",
               "short_name" : "Krung Thep Maha Nakhon",
               "types" : [ "administrative_area_level_1", "political" ]
            },
            {
               "long_name" : "Thailand",
               "short_name" : "TH",
               "types" : [ "country", "political" ]
            },
            {
               "long_name" : "10330",
               "short_name" : "10330",
               "types" : [ "postal_code" ]
            }
         ],
         "formatted_address" : "Thanon Witthayu, Khwaeng Lumphini, Khet Pathum Wan, Krung Thep Maha Nakhon 10330, Thailand",
         "geometry" : {
            "bounds" : {
               "northeast" : {
                  "lat" : 13.7325829,
                  "lng" : 100.5455514
               },
               "southwest" : {
                  "lat" : 13.732182,
                  "lng" : 100.5454872
               }
            },
            "location" : {
               "lat" : 13.7323825,
               "lng" : 100.5455193
            },
            "location_type" : "GEOMETRIC_CENTER",
            "viewport" : {
               "northeast" : {
                  "lat" : 13.7337314302915,
                  "lng" : 100.5468682802915
               },
               "southwest" : {
                  "lat" : 13.7310334697085,
                  "lng" : 100.5441703197085
               }
            }
         },
         "place_id" : "ChIJP_shOSef4jARVnyMfHBQSls",
         "types" : [ "route" ]
      },
      {
         "address_components" : [
            {
               "long_name" : "Lumphini",
               "short_name" : "Lumphini",
               "types" : [ "political", "sublocality", "sublocality_level_2" ]
            },
            {
               "long_name" : "Pathum Wan",
               "short_name" : "Pathum Wan",
               "types" : [ "political", "sublocality", "sublocality_level_1" ]
            },
            {
               "long_name" : "Bangkok",
               "short_name" : "Bangkok",
               "types" : [ "administrative_area_level_1", "political" ]
            },
            {
               "long_name" : "Thailand",
               "short_name" : "TH",
               "types" : [ "country", "political" ]
            },
            {
               "long_name" : "10330",
               "short_name" : "10330",
               "types" : [ "postal_code" ]
            }
         ],
         "formatted_address" : "Lumphini, Pathum Wan, Bangkok 10330, Thailand",
         "geometry" : {
            "bounds" : {
               "northeast" : {
                  "lat" : 13.7493739,
                  "lng" : 100.5529221
               },
               "southwest" : {
                  "lat" : 13.7227542,
                  "lng" : 100.5365147
               }
            },
            "location" : {
               "lat" : 13.7369466,
               "lng" : 100.543675
            },
            "location_type" : "APPROXIMATE",
            "viewport" : {
               "northeast" : {
                  "lat" : 13.7493739,
                  "lng" : 100.5529221
               },
               "southwest" : {
                  "lat" : 13.7227542,
                  "lng" : 100.5365147
               }
            }
         },
         "place_id" : "ChIJZ2rm7tie4jARwIniXbIAAQQ",
         "types" : [ "political", "sublocality", "sublocality_level_2" ]
      },
      {
         "address_components" : [
            {
               "long_name" : "Pathum Wan",
               "short_name" : "Pathum Wan",
               "types" : [ "political", "sublocality", "sublocality_level_1" ]
            },
            {
               "long_name" : "Bangkok",
               "short_name" : "Bangkok",
               "types" : [ "administrative_area_level_1", "political" ]
            },
            {
               "long_name" : "Thailand",
               "short_name" : "TH",
               "types" : [ "country", "political" ]
            },
            {
               "long_name" : "10330",
               "short_name" : "10330",
               "types" : [ "postal_code" ]
            }
         ],
         "formatted_address" : "Pathum Wan, Bangkok 10330, Thailand",
         "geometry" : {
            "bounds" : {
               "northeast" : {
                  "lat" : 13.7530794,
                  "lng" : 100.5529221
               },
               "southwest" : {
                  "lat" : 13.7227542,
                  "lng" : 100.5156772
               }
            },
            "location" : {
               "lat" : 13.7401666,
               "lng" : 100.5352367
            },
            "location_type" : "APPROXIMATE",
            "viewport" : {
               "northeast" : {
                  "lat" : 13.7530794,
                  "lng" : 100.5529221
               },
               "southwest" : {
                  "lat" : 13.7227542,
                  "lng" : 100.5156772
               }
            }
         },
         "place_id" : "ChIJ9dY-MdSe4jAR8E3iXbIAAQM",
         "types" : [ "political", "sublocality", "sublocality_level_1" ]
      },
      {
         "address_components" : [
            {
               "long_name" : "10330",
               "short_name" : "10330",
               "types" : [ "postal_code" ]
            },
            {
               "long_name" : "Pathum Wan",
               "short_name" : "Pathum Wan",
               "types" : [ "political", "sublocality", "sublocality_level_1" ]
            },
            {
               "long_name" : "Bangkok",
               "short_name" : "Bangkok",
               "types" : [ "administrative_area_level_1", "political" ]
            },
            {
               "long_name" : "Thailand",
               "short_name" : "TH",
               "types" : [ "country", "political" ]
            }
         ],
         "formatted_address" : "Pathum Wan, Bangkok 10330, Thailand",
         "geometry" : {
            "bounds" : {
               "northeast" : {
                  "lat" : 13.753179,
                  "lng" : 100.5528919
               },
               "southwest" : {
                  "lat" : 13.722786,
                  "lng" : 100.515601
               }
            },
            "location" : {
               "lat" : 13.7401666,
               "lng" : 100.5352367
            },
            "location_type" : "APPROXIMATE",
            "viewport" : {
               "northeast" : {
                  "lat" : 13.753179,
                  "lng" : 100.5528919
               },
               "southwest" : {
                  "lat" : 13.722786,
                  "lng" : 100.515601
               }
            }
         },
         "place_id" : "ChIJUZm8DdSe4jARoH1DebUAARw",
         "types" : [ "postal_code" ]
      },
      {
         "address_components" : [
            {
               "long_name" : "Bangkok",
               "short_name" : "กทม",
               "types" : [ "locality", "political" ]
            },
            {
               "long_name" : "Thailand",
               "short_name" : "TH",
               "types" : [ "country", "political" ]
            }
         ],
         "formatted_address" : "Bangkok, Thailand",
         "geometry" : {
            "bounds" : {
               "northeast" : {
                  "lat" : 13.955111,
                  "lng" : 100.938408
               },
               "southwest" : {
                  "lat" : 13.4940881,
                  "lng" : 100.3278136
               }
            },
            "location" : {
               "lat" : 13.7563309,
               "lng" : 100.5017651
            },
            "location_type" : "APPROXIMATE",
            "viewport" : {
               "northeast" : {
                  "lat" : 13.955111,
                  "lng" : 100.938408
               },
               "southwest" : {
                  "lat" : 13.4940881,
                  "lng" : 100.3278136
               }
            }
         },
         "place_id" : "ChIJ82ENKDJgHTERIEjiXbIAAQE",
         "types" : [ "locality", "political" ]
      },
      {
         "address_components" : [
            {
               "long_name" : "Bangkok",
               "short_name" : "Bangkok",
               "types" : [ "administrative_area_level_1", "political" ]
            },
            {
               "long_name" : "Thailand",
               "short_name" : "TH",
               "types" : [ "country", "political" ]
            }
         ],
         "formatted_address" : "Bangkok, Thailand",
         "geometry" : {
            "bounds" : {
               "northeast" : {
                  "lat" : 13.9551109,
                  "lng" : 100.9384077
               },
               "southwest" : {
                  "lat" : 13.4940881,
                  "lng" : 100.3278136
               }
            },
            "location" : {
               "lat" : 13.82031,
               "lng" : 100.6647101
            },
            "location_type" : "APPROXIMATE",
            "viewport" : {
               "northeast" : {
                  "lat" : 13.9551109,
                  "lng" : 100.9384077
               },
               "southwest" : {
                  "lat" : 13.4940881,
                  "lng" : 100.3278136
               }
            }
         },
         "place_id" : "ChIJ82ENKDJgHTERxw-LhWOFRTY",
         "types" : [ "administrative_area_level_1", "political" ]
      },
      {
         "address_components" : [
            {
               "long_name" : "Thailand",
               "short_name" : "TH",
               "types" : [ "country", "political" ]
            }
         ],
         "formatted_address" : "Thailand",
         "geometry" : {
            "bounds" : {
               "northeast" : {
                  "lat" : 20.465143,
                  "lng" : 105.636812
               },
               "southwest" : {
                  "lat" : 5.613038,
                  "lng" : 97.343396
               }
            },
            "location" : {
               "lat" : 15.870032,
               "lng" : 100.992541
            },
            "location_type" : "APPROXIMATE",
            "viewport" : {
               "northeast" : {
                  "lat" : 20.465143,
                  "lng" : 105.636812
               },
               "southwest" : {
                  "lat" : 5.613038,
                  "lng" : 97.343396
               }
            }
         },
         "place_id" : "ChIJsU1CR_eNTTARAuhXB4gs154",
         "types" : [ "country", "political" ]
      }
   ],
   "status" : "OK"
}
