{
   "plus_code" : {
      "compound_code" : "RCV8+XJ Bang Muang, Bang Yai District, Nonthaburi, Thailand",
      "global_code" : "7P52RCV8+XJ"
   },
   "results" : [
      {
         "address_components" : [
            {
               "long_name" : "29",
               "short_name" : "29",
               "types" : [ "street_number" ]
            },
            {
               "long_name" : "Soi Mu Ban Nature Home Wongwaen-Rama 5",
               "short_name" : "Soi Mu Ban Nature Home Wongwaen-Rama 5",
               "types" : [ "route" ]
            },
            {
               "long_name" : "Tambon Bang Muang",
               "short_name" : "Tambon Bang Muang",
               "types" : [ "locality", "political" ]
            },
            {
               "long_name" : "Amphoe Bang Yai",
               "short_name" : "อ. บางใหญ่",
               "types" : [ "administrative_area_level_2", "political" ]
            },
            {
               "long_name" : "Chang Wat Nonthaburi",
               "short_name" : "จ.นนทบุรี",
               "types" : [ "administrative_area_level_1", "political" ]
            },
            {
               "long_name" : "Thailand",
               "short_name" : "TH",
               "types" : [ "country", "political" ]
            },
            {
               "long_name" : "11140",
               "short_name" : "11140",
               "types" : [ "postal_code" ]
            }
         ],
         "formatted_address" : "29 Soi Mu Ban Nature Home Wongwaen-Rama 5, Tambon Bang Muang, Amphoe Bang Yai, Chang Wat Nonthaburi 11140, Thailand",
         "geometry" : {
            "location" : {
               "lat" : 13.844615,
               "lng" : 100.4161373
            },
            "location_type" : "ROOFTOP",
            "viewport" : {
               "northeast" : {
                  "lat" : 13.8459639802915,
                  "lng" : 100.4174862802915
               },
               "southwest" : {
                  "lat" : 13.8432660197085,
                  "lng" : 100.4147883197085
               }
            }
         },
         "place_id" : "ChIJSUUckkKQ4jAR2FgXO9TCxAw",
         "plus_code" : {
            "compound_code" : "RCV8+RF Bang Muang, Bang Yai District, Nonthaburi, Thailand",
            "global_code" : "7P52RCV8+RF"
         },
         "types" : [ "street_address" ]
      },
      {
         "address_components" : [
            {
               "long_name" : "29",
               "short_name" : "29",
               "types" : [ "street_number" ]
            },
            {
               "long_name" : "Soi Mu Ban Nature Home Wongwaen-Rama 5",
               "short_name" : "Soi Mu Ban Nature Home Wongwaen-Rama 5",
               "types" : [ "route" ]
            },
            {
               "long_name" : "Tambon Bang Muang",
               "short_name" : "Tambon Bang Muang",
               "types" : [ "locality", "political" ]
            },
            {
               "long_name" : "Amphoe Bang Yai",
               "short_name" : "อ. บางใหญ่",
               "types" : [ "administrative_area_level_2", "political" ]
            },
            {
               "long_name" : "Chang Wat Nonthaburi",
               "short_name" : "จ.นนทบุรี",
               "types" : [ "administrative_area_level_1", "political" ]
            },
            {
               "long_name" : "Thailand",
               "short_name" : "TH",
               "types" : [ "country", "political" ]
            },
            {
               "long_name" : "11140",
               "short_name" : "11140",
               "types" : [ "postal_code" ]
            }
         ],
         "formatted_address" : "29 Soi Mu Ban Nature Home Wongwaen-Rama 5, Tambon Bang Muang, Amphoe Bang Yai, Chang Wat Nonthaburi 11140, Thailand",
         "geometry" : {
            "bounds" : {
               "northeast" : {
                  "lat" : 13.844579,
                  "lng" : 100.4169621
               },
               "southwest" : {
                  "lat" : 13.8444243,
                  "lng" : 100.4159932
               }
            },
            "location" : {
               "lat" : 13.8445088,
               "lng" : 100.4164764
            },
            "location_type" : "GEOMETRIC_CENTER",
            "viewport" : {
               "northeast" : {
                  "lat" : 13.8458506302915,
                  "lng" : 100.4178266302915
               },
               "southwest" : {
                  "lat" : 13.8431526697085,
                  "lng" : 100.4151286697085
               }
            }
         },
         "place_id" : "ChIJk2F2kEKQ4jARhmjG-0ORR_0",
         "types" : [ "route" ]
      },
      {
         "address_components" : [
            {
               "long_name" : "ตำบล บางม่วง",
               "short_name" : "ตำบล บางม่วง",
               "types" : [ "locality", "political" ]
            },
            {
               "long_name" : "อำเภอ บางใหญ่",
               "short_name" : "อ. บางใหญ่",
               "types" : [ "administrative_area_level_2", "political" ]
            },
            {
               "long_name" : "นนทบุรี",
               "short_name" : "จ.นนทบุรี",
               "types" : [ "administrative_area_level_1", "political" ]
            },
            {
               "long_name" : "Thailand",
               "short_name" : "TH",
               "types" : [ "country", "political" ]
            },
            {
               "long_name" : "11140",
               "short_name" : "11140",
               "types" : [ "postal_code" ]
            }
         ],
         "formatted_address" : "58/ ซอย วัดสังวร หมู่14, ตำบล บางม่วง อำเภอ บางใหญ่ นนทบุรี 11140, Thailand",
         "geometry" : {
            "location" : {
               "lat" : 13.8462828,
               "lng" : 100.4193975
            },
            "location_type" : "GEOMETRIC_CENTER",
            "viewport" : {
               "northeast" : {
                  "lat" : 13.8476317802915,
                  "lng" : 100.4207464802915
               },
               "southwest" : {
                  "lat" : 13.8449338197085,
                  "lng" : 100.4180485197085
               }
            }
         },
         "place_id" : "ChIJm55O0mmQ4jARSt4k2mLl6nY",
         "plus_code" : {
            "compound_code" : "RCW9+GQ Bang Muang, Bang Yai District, Nonthaburi, Thailand",
            "global_code" : "7P52RCW9+GQ"
         },
         "types" : [ "establishment", "point_of_interest" ]
      },
      {
         "address_components" : [
            {
               "long_name" : "Bang Muang",
               "short_name" : "Bang Muang",
               "types" : [ "locality", "political" ]
            },
            {
               "long_name" : "Bang Yai District",
               "short_name" : "อ. บางใหญ่",
               "types" : [ "administrative_area_level_2", "political" ]
            },
            {
               "long_name" : "Nonthaburi",
               "short_name" : "จ.นนทบุรี",
               "types" : [ "administrative_area_level_1", "political" ]
            },
            {
               "long_name" : "Thailand",
               "short_name" : "TH",
               "types" : [ "country", "political" ]
            },
            {
               "long_name" : "11140",
               "short_name" : "11140",
               "types" : [ "postal_code" ]
            }
         ],
         "formatted_address" : "Bang Muang, Bang Yai District, Nonthaburi 11140, Thailand",
         "geometry" : {
            "bounds" : {
               "northeast" : {
                  "lat" : 13.8528917,
                  "lng" : 100.4254716
               },
               "southwest" : {
                  "lat" : 13.8239895,
                  "lng" : 100.3933908
               }
            },
            "location" : {
               "lat" : 13.845003,
               "lng" : 100.4127288
            },
            "location_type" : "APPROXIMATE",
            "viewport" : {
               "northeast" : {
                  "lat" : 13.8528917,
                  "lng" : 100.4254716
               },
               "southwest" : {
                  "lat" : 13.8239895,
                  "lng" : 100.3933908
               }
            }
         },
         "place_id" : "ChIJ_egFyFuQ4jARwJUMRTeSAQQ",
         "types" : [ "locality", "political" ]
      },
      {
         "address_components" : [
            {
               "long_name" : "11140",
               "short_name" : "11140",
               "types" : [ "postal_code" ]
            },
            {
               "long_name" : "Nonthaburi",
               "short_name" : "จ.นนทบุรี",
               "types" : [ "administrative_area_level_1", "political" ]
            },
            {
               "long_name" : "Thailand",
               "short_name" : "TH",
               "types" : [ "country", "political" ]
            }
         ],
         "formatted_address" : "Nonthaburi 11140, Thailand",
         "geometry" : {
            "bounds" : {
               "northeast" : {
                  "lat" : 13.9059191,
                  "lng" : 100.4481959
               },
               "southwest" : {
                  "lat" : 13.816829,
                  "lng" : 100.2971799
               }
            },
            "location" : {
               "lat" : 13.8448335,
               "lng" : 100.3610179
            },
            "location_type" : "APPROXIMATE",
            "viewport" : {
               "northeast" : {
                  "lat" : 13.9059191,
                  "lng" : 100.4481959
               },
               "southwest" : {
                  "lat" : 13.816829,
                  "lng" : 100.2971799
               }
            }
         },
         "place_id" : "ChIJk8mcD8KR4jAR0PwwZTqSARw",
         "types" : [ "postal_code" ]
      },
      {
         "address_components" : [
            {
               "long_name" : "Bang Yai District",
               "short_name" : "อ. บางใหญ่",
               "types" : [ "administrative_area_level_2", "political" ]
            },
            {
               "long_name" : "Nonthaburi",
               "short_name" : "จ.นนทบุรี",
               "types" : [ "administrative_area_level_1", "political" ]
            },
            {
               "long_name" : "Thailand",
               "short_name" : "TH",
               "types" : [ "country", "political" ]
            }
         ],
         "formatted_address" : "Bang Yai District, Nonthaburi, Thailand",
         "geometry" : {
            "bounds" : {
               "northeast" : {
                  "lat" : 13.9097592,
                  "lng" : 100.4483927
               },
               "southwest" : {
                  "lat" : 13.8147686,
                  "lng" : 100.2971876
               }
            },
            "location" : {
               "lat" : 13.8448335,
               "lng" : 100.3610179
            },
            "location_type" : "APPROXIMATE",
            "viewport" : {
               "northeast" : {
                  "lat" : 13.9097592,
                  "lng" : 100.4483927
               },
               "southwest" : {
                  "lat" : 13.8147686,
                  "lng" : 100.2971876
               }
            }
         },
         "place_id" : "ChIJjcmcD8KR4jARMFEMRTeSAQM",
         "types" : [ "administrative_area_level_2", "political" ]
      },
      {
         "address_components" : [
            {
               "long_name" : "Nonthaburi",
               "short_name" : "จ.นนทบุรี",
               "types" : [ "administrative_area_level_1", "political" ]
            },
            {
               "long_name" : "Thailand",
               "short_name" : "TH",
               "types" : [ "country", "political" ]
            }
         ],
         "formatted_address" : "Nonthaburi, Thailand",
         "geometry" : {
            "bounds" : {
               "northeast" : {
                  "lat" : 14.1403089,
                  "lng" : 100.5677219
               },
               "southwest" : {
                  "lat" : 13.7888688,
                  "lng" : 100.2623644
               }
            },
            "location" : {
               "lat" : 13.8621125,
               "lng" : 100.5143528
            },
            "location_type" : "APPROXIMATE",
            "viewport" : {
               "northeast" : {
                  "lat" : 14.1403089,
                  "lng" : 100.5677219
               },
               "southwest" : {
                  "lat" : 13.7888688,
                  "lng" : 100.2623644
               }
            }
         },
         "place_id" : "ChIJO6t2z8CE4jARpO5V399Gdpg",
         "types" : [ "administrative_area_level_1", "political" ]
      },
      {
         "address_components" : [
            {
               "long_name" : "Thailand",
               "short_name" : "TH",
               "types" : [ "country", "political" ]
            }
         ],
         "formatted_address" : "Thailand",
         "geometry" : {
            "bounds" : {
               "northeast" : {
                  "lat" : 20.465143,
                  "lng" : 105.636812
               },
               "southwest" : {
                  "lat" : 5.613038,
                  "lng" : 97.343396
               }
            },
            "location" : {
               "lat" : 15.870032,
               "lng" : 100.992541
            },
            "location_type" : "APPROXIMATE",
            "viewport" : {
               "northeast" : {
                  "lat" : 20.465143,
                  "lng" : 105.636812
               },
               "southwest" : {
                  "lat" : 5.613038,
                  "lng" : 97.343396
               }
            }
         },
         "place_id" : "ChIJsU1CR_eNTTARAuhXB4gs154",
         "types" : [ "country", "political" ]
      }
   ],
   "status" : "OK"
}
