{
   "plus_code" : {
      "compound_code" : "RCMF+F8 Bang Khu Wiang, Bang Kruai District, Nonthaburi, Thailand",
      "global_code" : "7P52RCMF+F8"
   },
   "results" : [
      {
         "address_components" : [
            {
               "long_name" : "Soi Bun Long Uthit",
               "short_name" : "Soi Bun Long Uthit",
               "types" : [ "route" ]
            },
            {
               "long_name" : "Tambon Bang Khu Wiang",
               "short_name" : "Tambon Bang Khu Wiang",
               "types" : [ "locality", "political" ]
            },
            {
               "long_name" : "Amphoe Bang Kruai",
               "short_name" : "อ.บางกรวย",
               "types" : [ "administrative_area_level_2", "political" ]
            },
            {
               "long_name" : "Chang Wat Nonthaburi",
               "short_name" : "จ.นนทบุรี",
               "types" : [ "administrative_area_level_1", "political" ]
            },
            {
               "long_name" : "Thailand",
               "short_name" : "TH",
               "types" : [ "country", "political" ]
            },
            {
               "long_name" : "11130",
               "short_name" : "11130",
               "types" : [ "postal_code" ]
            }
         ],
         "formatted_address" : "Soi Bun Long Uthit, Tambon Bang Khu Wiang, Amphoe Bang Kruai, Chang Wat Nonthaburi 11130, Thailand",
         "geometry" : {
            "bounds" : {
               "northeast" : {
                  "lat" : 13.8343507,
                  "lng" : 100.4256043
               },
               "southwest" : {
                  "lat" : 13.8337204,
                  "lng" : 100.4245442
               }
            },
            "location" : {
               "lat" : 13.8340096,
               "lng" : 100.4250912
            },
            "location_type" : "GEOMETRIC_CENTER",
            "viewport" : {
               "northeast" : {
                  "lat" : 13.8353845302915,
                  "lng" : 100.4264232302915
               },
               "southwest" : {
                  "lat" : 13.8326865697085,
                  "lng" : 100.4237252697085
               }
            }
         },
         "place_id" : "ChIJ4ZRArmOQ4jARHE2sM5gL-Yg",
         "types" : [ "route" ]
      },
      {
         "address_components" : [
            {
               "long_name" : "Bang Khu Wiang",
               "short_name" : "Bang Khu Wiang",
               "types" : [ "locality", "political" ]
            },
            {
               "long_name" : "Bang Kruai District",
               "short_name" : "อ.บางกรวย",
               "types" : [ "administrative_area_level_2", "political" ]
            },
            {
               "long_name" : "Nonthaburi",
               "short_name" : "จ.นนทบุรี",
               "types" : [ "administrative_area_level_1", "political" ]
            },
            {
               "long_name" : "Thailand",
               "short_name" : "TH",
               "types" : [ "country", "political" ]
            },
            {
               "long_name" : "11130",
               "short_name" : "11130",
               "types" : [ "postal_code" ]
            }
         ],
         "formatted_address" : "Bang Khu Wiang, Bang Kruai District, Nonthaburi 11130, Thailand",
         "geometry" : {
            "bounds" : {
               "northeast" : {
                  "lat" : 13.8366714,
                  "lng" : 100.4310615
               },
               "southwest" : {
                  "lat" : 13.8051929,
                  "lng" : 100.4030433
               }
            },
            "location" : {
               "lat" : 13.8224171,
               "lng" : 100.412452
            },
            "location_type" : "APPROXIMATE",
            "viewport" : {
               "northeast" : {
                  "lat" : 13.8366714,
                  "lng" : 100.4310615
               },
               "southwest" : {
                  "lat" : 13.8051929,
                  "lng" : 100.4030433
               }
            }
         },
         "place_id" : "ChIJwTputfKQ4jARgJUMRTeSAQQ",
         "types" : [ "locality", "political" ]
      },
      {
         "address_components" : [
            {
               "long_name" : "Bang Kruai District",
               "short_name" : "อ.บางกรวย",
               "types" : [ "administrative_area_level_2", "political" ]
            },
            {
               "long_name" : "Nonthaburi",
               "short_name" : "จ.นนทบุรี",
               "types" : [ "administrative_area_level_1", "political" ]
            },
            {
               "long_name" : "Thailand",
               "short_name" : "TH",
               "types" : [ "country", "political" ]
            },
            {
               "long_name" : "11130",
               "short_name" : "11130",
               "types" : [ "postal_code" ]
            }
         ],
         "formatted_address" : "Bang Kruai District, Nonthaburi 11130, Thailand",
         "geometry" : {
            "bounds" : {
               "northeast" : {
                  "lat" : 13.8375157,
                  "lng" : 100.5151119
               },
               "southwest" : {
                  "lat" : 13.7888688,
                  "lng" : 100.3191584
               }
            },
            "location" : {
               "lat" : 13.8135951,
               "lng" : 100.4227992
            },
            "location_type" : "APPROXIMATE",
            "viewport" : {
               "northeast" : {
                  "lat" : 13.8375157,
                  "lng" : 100.5151119
               },
               "southwest" : {
                  "lat" : 13.7888688,
                  "lng" : 100.3191584
               }
            }
         },
         "place_id" : "ChIJzzi3UuuQ4jARIFEMRTeSAQM",
         "types" : [ "administrative_area_level_2", "political" ]
      },
      {
         "address_components" : [
            {
               "long_name" : "11130",
               "short_name" : "11130",
               "types" : [ "postal_code" ]
            },
            {
               "long_name" : "Nonthaburi",
               "short_name" : "จ.นนทบุรี",
               "types" : [ "administrative_area_level_1", "political" ]
            },
            {
               "long_name" : "Thailand",
               "short_name" : "TH",
               "types" : [ "country", "political" ]
            }
         ],
         "formatted_address" : "Nonthaburi 11130, Thailand",
         "geometry" : {
            "bounds" : {
               "northeast" : {
                  "lat" : 13.8367849,
                  "lng" : 100.5151361
               },
               "southwest" : {
                  "lat" : 13.7889211,
                  "lng" : 100.319332
               }
            },
            "location" : {
               "lat" : 13.8135951,
               "lng" : 100.4227992
            },
            "location_type" : "APPROXIMATE",
            "viewport" : {
               "northeast" : {
                  "lat" : 13.8367849,
                  "lng" : 100.5151361
               },
               "southwest" : {
                  "lat" : 13.7889211,
                  "lng" : 100.319332
               }
            }
         },
         "place_id" : "ChIJPT9XTeuQ4jARUPwwZTqSARw",
         "types" : [ "postal_code" ]
      },
      {
         "address_components" : [
            {
               "long_name" : "Nonthaburi",
               "short_name" : "จ.นนทบุรี",
               "types" : [ "administrative_area_level_1", "political" ]
            },
            {
               "long_name" : "Thailand",
               "short_name" : "TH",
               "types" : [ "country", "political" ]
            }
         ],
         "formatted_address" : "Nonthaburi, Thailand",
         "geometry" : {
            "bounds" : {
               "northeast" : {
                  "lat" : 14.1403089,
                  "lng" : 100.5677219
               },
               "southwest" : {
                  "lat" : 13.7888688,
                  "lng" : 100.2623644
               }
            },
            "location" : {
               "lat" : 13.8621125,
               "lng" : 100.5143528
            },
            "location_type" : "APPROXIMATE",
            "viewport" : {
               "northeast" : {
                  "lat" : 14.1403089,
                  "lng" : 100.5677219
               },
               "southwest" : {
                  "lat" : 13.7888688,
                  "lng" : 100.2623644
               }
            }
         },
         "place_id" : "ChIJO6t2z8CE4jARpO5V399Gdpg",
         "types" : [ "administrative_area_level_1", "political" ]
      },
      {
         "address_components" : [
            {
               "long_name" : "Thailand",
               "short_name" : "TH",
               "types" : [ "country", "political" ]
            }
         ],
         "formatted_address" : "Thailand",
         "geometry" : {
            "bounds" : {
               "northeast" : {
                  "lat" : 20.465143,
                  "lng" : 105.636812
               },
               "southwest" : {
                  "lat" : 5.613038,
                  "lng" : 97.343396
               }
            },
            "location" : {
               "lat" : 15.870032,
               "lng" : 100.992541
            },
            "location_type" : "APPROXIMATE",
            "viewport" : {
               "northeast" : {
                  "lat" : 20.465143,
                  "lng" : 105.636812
               },
               "southwest" : {
                  "lat" : 5.613038,
                  "lng" : 97.343396
               }
            }
         },
         "place_id" : "ChIJsU1CR_eNTTARAuhXB4gs154",
         "types" : [ "country", "political" ]
      }
   ],
   "status" : "OK"
}
