{
   "plus_code" : {
      "compound_code" : "VC47+C5 Bang Mae Nang, Bang Yai District, Nonthaburi, Thailand",
      "global_code" : "7P52VC47+C5"
   },
   "results" : [
      {
         "address_components" : [
            {
               "long_name" : "ป้ายรถประจำทาง ตรงข้ามซอยถนนประชาอุทิศ",
               "short_name" : "ป้ายรถประจำทาง ตรงข้ามซอยถนนประชาอุทิศ",
               "types" : [
                  "bus_station",
                  "establishment",
                  "point_of_interest",
                  "transit_station"
               ]
            },
            {
               "long_name" : "Tambon Bang Mae Nang",
               "short_name" : "ต. บางแม่นาง",
               "types" : [ "locality", "political" ]
            },
            {
               "long_name" : "Amphoe Bang Yai",
               "short_name" : "อ. บางใหญ่",
               "types" : [ "administrative_area_level_2", "political" ]
            },
            {
               "long_name" : "Chang Wat Nonthaburi",
               "short_name" : "จ.นนทบุรี",
               "types" : [ "administrative_area_level_1", "political" ]
            },
            {
               "long_name" : "Thailand",
               "short_name" : "TH",
               "types" : [ "country", "political" ]
            },
            {
               "long_name" : "11140",
               "short_name" : "11140",
               "types" : [ "postal_code" ]
            }
         ],
         "formatted_address" : "ป้ายรถประจำทาง ตรงข้ามซอยถนนประชาอุทิศ Tambon Bang Mae Nang, Amphoe Bang Yai, Chang Wat Nonthaburi 11140, Thailand",
         "geometry" : {
            "location" : {
               "lat" : 13.8563291,
               "lng" : 100.4119237
            },
            "location_type" : "GEOMETRIC_CENTER",
            "viewport" : {
               "northeast" : {
                  "lat" : 13.8576780802915,
                  "lng" : 100.4132726802915
               },
               "southwest" : {
                  "lat" : 13.8549801197085,
                  "lng" : 100.4105747197085
               }
            }
         },
         "place_id" : "ChIJ-0kKLj-Q4jARDLyiK9_XJWY",
         "plus_code" : {
            "compound_code" : "VC46+GQ Bang Mae Nang, Bang Yai District, Nonthaburi, Thailand",
            "global_code" : "7P52VC46+GQ"
         },
         "types" : [
            "bus_station",
            "establishment",
            "point_of_interest",
            "transit_station"
         ]
      },
      {
         "address_components" : [
            {
               "long_name" : "Soi Mu Ban Ban Saranya 1/4",
               "short_name" : "Soi Mu Ban Ban Saranya 1/4",
               "types" : [ "route" ]
            },
            {
               "long_name" : "Tambon Bang Mae Nang",
               "short_name" : "ต. บางแม่นาง",
               "types" : [ "locality", "political" ]
            },
            {
               "long_name" : "Amphoe Bang Yai",
               "short_name" : "อ. บางใหญ่",
               "types" : [ "administrative_area_level_2", "political" ]
            },
            {
               "long_name" : "Chang Wat Nonthaburi",
               "short_name" : "จ.นนทบุรี",
               "types" : [ "administrative_area_level_1", "political" ]
            },
            {
               "long_name" : "Thailand",
               "short_name" : "TH",
               "types" : [ "country", "political" ]
            },
            {
               "long_name" : "11140",
               "short_name" : "11140",
               "types" : [ "postal_code" ]
            }
         ],
         "formatted_address" : "Soi Mu Ban Ban Saranya 1/4, Tambon Bang Mae Nang, Amphoe Bang Yai, Chang Wat Nonthaburi 11140, Thailand",
         "geometry" : {
            "bounds" : {
               "northeast" : {
                  "lat" : 13.8553594,
                  "lng" : 100.4139481
               },
               "southwest" : {
                  "lat" : 13.8552385,
                  "lng" : 100.4130235
               }
            },
            "location" : {
               "lat" : 13.855299,
               "lng" : 100.4134858
            },
            "location_type" : "GEOMETRIC_CENTER",
            "viewport" : {
               "northeast" : {
                  "lat" : 13.8566479302915,
                  "lng" : 100.4148347802915
               },
               "southwest" : {
                  "lat" : 13.8539499697085,
                  "lng" : 100.4121368197085
               }
            }
         },
         "place_id" : "ChIJY5r_bD-Q4jARBn_dhHvSho4",
         "types" : [ "route" ]
      },
      {
         "address_components" : [
            {
               "long_name" : "Bang Mae Nang",
               "short_name" : "ต. บางแม่นาง",
               "types" : [ "locality", "political" ]
            },
            {
               "long_name" : "Bang Yai District",
               "short_name" : "อ. บางใหญ่",
               "types" : [ "administrative_area_level_2", "political" ]
            },
            {
               "long_name" : "Nonthaburi",
               "short_name" : "จ.นนทบุรี",
               "types" : [ "administrative_area_level_1", "political" ]
            },
            {
               "long_name" : "Thailand",
               "short_name" : "TH",
               "types" : [ "country", "political" ]
            }
         ],
         "formatted_address" : "Bang Mae Nang, Bang Yai District, Nonthaburi, Thailand",
         "geometry" : {
            "bounds" : {
               "northeast" : {
                  "lat" : 13.9097592,
                  "lng" : 100.4166836
               },
               "southwest" : {
                  "lat" : 13.8423494,
                  "lng" : 100.3607043
               }
            },
            "location" : {
               "lat" : 13.8838225,
               "lng" : 100.3712598
            },
            "location_type" : "APPROXIMATE",
            "viewport" : {
               "northeast" : {
                  "lat" : 13.9097592,
                  "lng" : 100.4166836
               },
               "southwest" : {
                  "lat" : 13.8423494,
                  "lng" : 100.3607043
               }
            }
         },
         "place_id" : "ChIJPeolcdaR4jAR0JUMRTeSAQQ",
         "types" : [ "locality", "political" ]
      },
      {
         "address_components" : [
            {
               "long_name" : "11140",
               "short_name" : "11140",
               "types" : [ "postal_code" ]
            },
            {
               "long_name" : "Nonthaburi",
               "short_name" : "จ.นนทบุรี",
               "types" : [ "administrative_area_level_1", "political" ]
            },
            {
               "long_name" : "Thailand",
               "short_name" : "TH",
               "types" : [ "country", "political" ]
            }
         ],
         "formatted_address" : "Nonthaburi 11140, Thailand",
         "geometry" : {
            "bounds" : {
               "northeast" : {
                  "lat" : 13.9059191,
                  "lng" : 100.4481959
               },
               "southwest" : {
                  "lat" : 13.816829,
                  "lng" : 100.2971799
               }
            },
            "location" : {
               "lat" : 13.8448335,
               "lng" : 100.3610179
            },
            "location_type" : "APPROXIMATE",
            "viewport" : {
               "northeast" : {
                  "lat" : 13.9059191,
                  "lng" : 100.4481959
               },
               "southwest" : {
                  "lat" : 13.816829,
                  "lng" : 100.2971799
               }
            }
         },
         "place_id" : "ChIJk8mcD8KR4jAR0PwwZTqSARw",
         "types" : [ "postal_code" ]
      },
      {
         "address_components" : [
            {
               "long_name" : "Bang Yai District",
               "short_name" : "อ. บางใหญ่",
               "types" : [ "administrative_area_level_2", "political" ]
            },
            {
               "long_name" : "Nonthaburi",
               "short_name" : "จ.นนทบุรี",
               "types" : [ "administrative_area_level_1", "political" ]
            },
            {
               "long_name" : "Thailand",
               "short_name" : "TH",
               "types" : [ "country", "political" ]
            }
         ],
         "formatted_address" : "Bang Yai District, Nonthaburi, Thailand",
         "geometry" : {
            "bounds" : {
               "northeast" : {
                  "lat" : 13.9097592,
                  "lng" : 100.4483927
               },
               "southwest" : {
                  "lat" : 13.8147686,
                  "lng" : 100.2971876
               }
            },
            "location" : {
               "lat" : 13.8448335,
               "lng" : 100.3610179
            },
            "location_type" : "APPROXIMATE",
            "viewport" : {
               "northeast" : {
                  "lat" : 13.9097592,
                  "lng" : 100.4483927
               },
               "southwest" : {
                  "lat" : 13.8147686,
                  "lng" : 100.2971876
               }
            }
         },
         "place_id" : "ChIJjcmcD8KR4jARMFEMRTeSAQM",
         "types" : [ "administrative_area_level_2", "political" ]
      },
      {
         "address_components" : [
            {
               "long_name" : "Nonthaburi",
               "short_name" : "จ.นนทบุรี",
               "types" : [ "administrative_area_level_1", "political" ]
            },
            {
               "long_name" : "Thailand",
               "short_name" : "TH",
               "types" : [ "country", "political" ]
            }
         ],
         "formatted_address" : "Nonthaburi, Thailand",
         "geometry" : {
            "bounds" : {
               "northeast" : {
                  "lat" : 14.1403089,
                  "lng" : 100.5677219
               },
               "southwest" : {
                  "lat" : 13.7888688,
                  "lng" : 100.2623644
               }
            },
            "location" : {
               "lat" : 13.8621125,
               "lng" : 100.5143528
            },
            "location_type" : "APPROXIMATE",
            "viewport" : {
               "northeast" : {
                  "lat" : 14.1403089,
                  "lng" : 100.5677219
               },
               "southwest" : {
                  "lat" : 13.7888688,
                  "lng" : 100.2623644
               }
            }
         },
         "place_id" : "ChIJO6t2z8CE4jARpO5V399Gdpg",
         "types" : [ "administrative_area_level_1", "political" ]
      },
      {
         "address_components" : [
            {
               "long_name" : "Thailand",
               "short_name" : "TH",
               "types" : [ "country", "political" ]
            }
         ],
         "formatted_address" : "Thailand",
         "geometry" : {
            "bounds" : {
               "northeast" : {
                  "lat" : 20.465143,
                  "lng" : 105.636812
               },
               "southwest" : {
                  "lat" : 5.613038,
                  "lng" : 97.343396
               }
            },
            "location" : {
               "lat" : 15.870032,
               "lng" : 100.992541
            },
            "location_type" : "APPROXIMATE",
            "viewport" : {
               "northeast" : {
                  "lat" : 20.465143,
                  "lng" : 105.636812
               },
               "southwest" : {
                  "lat" : 5.613038,
                  "lng" : 97.343396
               }
            }
         },
         "place_id" : "ChIJsU1CR_eNTTARAuhXB4gs154",
         "types" : [ "country", "political" ]
      }
   ],
   "status" : "OK"
}
