{
   "plus_code" : {
      "compound_code" : "QG6G+J9 Bangkok, Thailand",
      "global_code" : "7P52QG6G+J9"
   },
   "results" : [
      {
         "address_components" : [
            {
               "long_name" : "119",
               "short_name" : "119",
               "types" : [ "street_number" ]
            },
            {
               "long_name" : "Thanon Si Ayutthaya",
               "short_name" : "Thanon Si Ayutthaya",
               "types" : [ "route" ]
            },
            {
               "long_name" : "Khwaeng Thung Phaya Thai",
               "short_name" : "Khwaeng Thung Phaya Thai",
               "types" : [ "political", "sublocality", "sublocality_level_2" ]
            },
            {
               "long_name" : "Khet Ratchathewi",
               "short_name" : "Khet Ratchathewi",
               "types" : [ "political", "sublocality", "sublocality_level_1" ]
            },
            {
               "long_name" : "Krung Thep Maha Nakhon",
               "short_name" : "Krung Thep Maha Nakhon",
               "types" : [ "administrative_area_level_1", "political" ]
            },
            {
               "long_name" : "Thailand",
               "short_name" : "TH",
               "types" : [ "country", "political" ]
            },
            {
               "long_name" : "10400",
               "short_name" : "10400",
               "types" : [ "postal_code" ]
            }
         ],
         "formatted_address" : "119 Thanon Si Ayutthaya, Khwaeng Thung Phaya Thai, Khet Ratchathewi, Krung Thep Maha Nakhon 10400, Thailand",
         "geometry" : {
            "location" : {
               "lat" : 13.7615249,
               "lng" : 100.525912
            },
            "location_type" : "ROOFTOP",
            "viewport" : {
               "northeast" : {
                  "lat" : 13.7628738802915,
                  "lng" : 100.5272609802915
               },
               "southwest" : {
                  "lat" : 13.7601759197085,
                  "lng" : 100.5245630197085
               }
            }
         },
         "place_id" : "ChIJYw-nu0uZ4jARJpStFA8xgxE",
         "plus_code" : {
            "compound_code" : "QG6G+J9 Bangkok, Thailand",
            "global_code" : "7P52QG6G+J9"
         },
         "types" : [ "street_address" ]
      },
      {
         "address_components" : [
            {
               "long_name" : "199",
               "short_name" : "199",
               "types" : [ "street_number" ]
            },
            {
               "long_name" : "Rama VI Road",
               "short_name" : "Rama VI Rd",
               "types" : [ "route" ]
            },
            {
               "long_name" : "Khwaeng Thung Phaya Thai",
               "short_name" : "Khwaeng Thung Phaya Thai",
               "types" : [ "political", "sublocality", "sublocality_level_2" ]
            },
            {
               "long_name" : "Khet Ratchathewi",
               "short_name" : "Khet Ratchathewi",
               "types" : [ "political", "sublocality", "sublocality_level_1" ]
            },
            {
               "long_name" : "Krung Thep Maha Nakhon",
               "short_name" : "Krung Thep Maha Nakhon",
               "types" : [ "administrative_area_level_1", "political" ]
            },
            {
               "long_name" : "Thailand",
               "short_name" : "TH",
               "types" : [ "country", "political" ]
            },
            {
               "long_name" : "10400",
               "short_name" : "10400",
               "types" : [ "postal_code" ]
            }
         ],
         "formatted_address" : "199 Rama VI Rd, Khwaeng Thung Phaya Thai, Khet Ratchathewi, Krung Thep Maha Nakhon 10400, Thailand",
         "geometry" : {
            "location" : {
               "lat" : 13.7613835,
               "lng" : 100.5260277
            },
            "location_type" : "ROOFTOP",
            "viewport" : {
               "northeast" : {
                  "lat" : 13.7627324802915,
                  "lng" : 100.5273766802915
               },
               "southwest" : {
                  "lat" : 13.7600345197085,
                  "lng" : 100.5246787197085
               }
            }
         },
         "place_id" : "ChIJo9fAukuZ4jARzvOAY3oqnr4",
         "plus_code" : {
            "compound_code" : "QG6G+HC Bangkok, Thailand",
            "global_code" : "7P52QG6G+HC"
         },
         "types" : [ "establishment", "fire_station", "point_of_interest" ]
      },
      {
         "address_components" : [
            {
               "long_name" : "119",
               "short_name" : "119",
               "types" : [ "street_number" ]
            },
            {
               "long_name" : "Thanon Si Ayutthaya",
               "short_name" : "Thanon Si Ayutthaya",
               "types" : [ "route" ]
            },
            {
               "long_name" : "Khwaeng Thung Phaya Thai",
               "short_name" : "Khwaeng Thung Phaya Thai",
               "types" : [ "political", "sublocality", "sublocality_level_2" ]
            },
            {
               "long_name" : "Khet Ratchathewi",
               "short_name" : "Khet Ratchathewi",
               "types" : [ "political", "sublocality", "sublocality_level_1" ]
            },
            {
               "long_name" : "Krung Thep Maha Nakhon",
               "short_name" : "Krung Thep Maha Nakhon",
               "types" : [ "administrative_area_level_1", "political" ]
            },
            {
               "long_name" : "Thailand",
               "short_name" : "TH",
               "types" : [ "country", "political" ]
            },
            {
               "long_name" : "10400",
               "short_name" : "10400",
               "types" : [ "postal_code" ]
            }
         ],
         "formatted_address" : "119 Thanon Si Ayutthaya, Khwaeng Thung Phaya Thai, Khet Ratchathewi, Krung Thep Maha Nakhon 10400, Thailand",
         "geometry" : {
            "location" : {
               "lat" : 13.7616199,
               "lng" : 100.5259554
            },
            "location_type" : "RANGE_INTERPOLATED",
            "viewport" : {
               "northeast" : {
                  "lat" : 13.7629688802915,
                  "lng" : 100.5273043802915
               },
               "southwest" : {
                  "lat" : 13.7602709197085,
                  "lng" : 100.5246064197085
               }
            }
         },
         "place_id" : "EmsxMTkgVGhhbm9uIFNpIEF5dXR0aGF5YSwgS2h3YWVuZyBUaHVuZyBQaGF5YSBUaGFpLCBLaGV0IFJhdGNoYXRoZXdpLCBLcnVuZyBUaGVwIE1haGEgTmFraG9uIDEwNDAwLCBUaGFpbGFuZCIaEhgKFAoSCbOrx6RLmeIwEYACVtXV4dH3EHc",
         "types" : [ "street_address" ]
      },
      {
         "address_components" : [
            {
               "long_name" : "Thanon Si Ayutthaya",
               "short_name" : "Thanon Si Ayutthaya",
               "types" : [ "route" ]
            },
            {
               "long_name" : "Khwaeng Thung Phaya Thai",
               "short_name" : "Khwaeng Thung Phaya Thai",
               "types" : [ "political", "sublocality", "sublocality_level_2" ]
            },
            {
               "long_name" : "Khet Ratchathewi",
               "short_name" : "Khet Ratchathewi",
               "types" : [ "political", "sublocality", "sublocality_level_1" ]
            },
            {
               "long_name" : "Krung Thep Maha Nakhon",
               "short_name" : "Krung Thep Maha Nakhon",
               "types" : [ "administrative_area_level_1", "political" ]
            },
            {
               "long_name" : "Thailand",
               "short_name" : "TH",
               "types" : [ "country", "political" ]
            },
            {
               "long_name" : "10400",
               "short_name" : "10400",
               "types" : [ "postal_code" ]
            }
         ],
         "formatted_address" : "Thanon Si Ayutthaya, Khwaeng Thung Phaya Thai, Khet Ratchathewi, Krung Thep Maha Nakhon 10400, Thailand",
         "geometry" : {
            "bounds" : {
               "northeast" : {
                  "lat" : 13.7616247,
                  "lng" : 100.526356
               },
               "southwest" : {
                  "lat" : 13.7614473,
                  "lng" : 100.5259443
               }
            },
            "location" : {
               "lat" : 13.7615359,
               "lng" : 100.5261501
            },
            "location_type" : "GEOMETRIC_CENTER",
            "viewport" : {
               "northeast" : {
                  "lat" : 13.7628849802915,
                  "lng" : 100.5274991302915
               },
               "southwest" : {
                  "lat" : 13.7601870197085,
                  "lng" : 100.5248011697085
               }
            }
         },
         "place_id" : "ChIJs6vHpEuZ4jARgQJW1dXh0fc",
         "types" : [ "route" ]
      },
      {
         "address_components" : [
            {
               "long_name" : "Thung Phaya Thai",
               "short_name" : "Thung Phaya Thai",
               "types" : [ "political", "sublocality", "sublocality_level_2" ]
            },
            {
               "long_name" : "Ratchathewi",
               "short_name" : "Ratchathewi",
               "types" : [ "political", "sublocality", "sublocality_level_1" ]
            },
            {
               "long_name" : "Bangkok",
               "short_name" : "Bangkok",
               "types" : [ "administrative_area_level_1", "political" ]
            },
            {
               "long_name" : "Thailand",
               "short_name" : "TH",
               "types" : [ "country", "political" ]
            },
            {
               "long_name" : "10400",
               "short_name" : "10400",
               "types" : [ "postal_code" ]
            }
         ],
         "formatted_address" : "Thung Phaya Thai, Ratchathewi, Bangkok 10400, Thailand",
         "geometry" : {
            "bounds" : {
               "northeast" : {
                  "lat" : 13.7742449,
                  "lng" : 100.5388136
               },
               "southwest" : {
                  "lat" : 13.7531829,
                  "lng" : 100.520817
               }
            },
            "location" : {
               "lat" : 13.7605358,
               "lng" : 100.5267991
            },
            "location_type" : "APPROXIMATE",
            "viewport" : {
               "northeast" : {
                  "lat" : 13.7742449,
                  "lng" : 100.5388136
               },
               "southwest" : {
                  "lat" : 13.7531829,
                  "lng" : 100.520817
               }
            }
         },
         "place_id" : "ChIJDw2ZUrOe4jARcI_iXbIAAQQ",
         "types" : [ "political", "sublocality", "sublocality_level_2" ]
      },
      {
         "address_components" : [
            {
               "long_name" : "Ratchathewi",
               "short_name" : "Ratchathewi",
               "types" : [ "political", "sublocality", "sublocality_level_1" ]
            },
            {
               "long_name" : "Bangkok",
               "short_name" : "Bangkok",
               "types" : [ "administrative_area_level_1", "political" ]
            },
            {
               "long_name" : "Thailand",
               "short_name" : "TH",
               "types" : [ "country", "political" ]
            }
         ],
         "formatted_address" : "Ratchathewi, Bangkok, Thailand",
         "geometry" : {
            "bounds" : {
               "northeast" : {
                  "lat" : 13.7742449,
                  "lng" : 100.5648528
               },
               "southwest" : {
                  "lat" : 13.7477764,
                  "lng" : 100.5190604
               }
            },
            "location" : {
               "lat" : 13.7543361,
               "lng" : 100.5380494
            },
            "location_type" : "APPROXIMATE",
            "viewport" : {
               "northeast" : {
                  "lat" : 13.7742449,
                  "lng" : 100.5648528
               },
               "southwest" : {
                  "lat" : 13.7477764,
                  "lng" : 100.5190604
               }
            }
         },
         "place_id" : "ChIJtRHqw7me4jAR0E_iXbIAAQM",
         "types" : [ "political", "sublocality", "sublocality_level_1" ]
      },
      {
         "address_components" : [
            {
               "long_name" : "10400",
               "short_name" : "10400",
               "types" : [ "postal_code" ]
            },
            {
               "long_name" : "Bangkok",
               "short_name" : "Bangkok",
               "types" : [ "administrative_area_level_1", "political" ]
            },
            {
               "long_name" : "Thailand",
               "short_name" : "TH",
               "types" : [ "country", "political" ]
            }
         ],
         "formatted_address" : "Bangkok 10400, Thailand",
         "geometry" : {
            "bounds" : {
               "northeast" : {
                  "lat" : 13.8011299,
                  "lng" : 100.57487
               },
               "southwest" : {
                  "lat" : 13.747993,
                  "lng" : 100.518899
               }
            },
            "location" : {
               "lat" : 13.7739818,
               "lng" : 100.546488
            },
            "location_type" : "APPROXIMATE",
            "viewport" : {
               "northeast" : {
                  "lat" : 13.8011299,
                  "lng" : 100.57487
               },
               "southwest" : {
                  "lat" : 13.747993,
                  "lng" : 100.518899
               }
            }
         },
         "place_id" : "ChIJGw348qOe4jARwH9DebUAARw",
         "types" : [ "postal_code" ]
      },
      {
         "address_components" : [
            {
               "long_name" : "Bangkok",
               "short_name" : "กทม",
               "types" : [ "locality", "political" ]
            },
            {
               "long_name" : "Thailand",
               "short_name" : "TH",
               "types" : [ "country", "political" ]
            }
         ],
         "formatted_address" : "Bangkok, Thailand",
         "geometry" : {
            "bounds" : {
               "northeast" : {
                  "lat" : 13.955111,
                  "lng" : 100.938408
               },
               "southwest" : {
                  "lat" : 13.4940881,
                  "lng" : 100.3278136
               }
            },
            "location" : {
               "lat" : 13.7563309,
               "lng" : 100.5017651
            },
            "location_type" : "APPROXIMATE",
            "viewport" : {
               "northeast" : {
                  "lat" : 13.955111,
                  "lng" : 100.938408
               },
               "southwest" : {
                  "lat" : 13.4940881,
                  "lng" : 100.3278136
               }
            }
         },
         "place_id" : "ChIJ82ENKDJgHTERIEjiXbIAAQE",
         "types" : [ "locality", "political" ]
      },
      {
         "address_components" : [
            {
               "long_name" : "Bangkok",
               "short_name" : "Bangkok",
               "types" : [ "administrative_area_level_1", "political" ]
            },
            {
               "long_name" : "Thailand",
               "short_name" : "TH",
               "types" : [ "country", "political" ]
            }
         ],
         "formatted_address" : "Bangkok, Thailand",
         "geometry" : {
            "bounds" : {
               "northeast" : {
                  "lat" : 13.9551109,
                  "lng" : 100.9384077
               },
               "southwest" : {
                  "lat" : 13.4940881,
                  "lng" : 100.3278136
               }
            },
            "location" : {
               "lat" : 13.82031,
               "lng" : 100.6647101
            },
            "location_type" : "APPROXIMATE",
            "viewport" : {
               "northeast" : {
                  "lat" : 13.9551109,
                  "lng" : 100.9384077
               },
               "southwest" : {
                  "lat" : 13.4940881,
                  "lng" : 100.3278136
               }
            }
         },
         "place_id" : "ChIJ82ENKDJgHTERxw-LhWOFRTY",
         "types" : [ "administrative_area_level_1", "political" ]
      },
      {
         "address_components" : [
            {
               "long_name" : "Thailand",
               "short_name" : "TH",
               "types" : [ "country", "political" ]
            }
         ],
         "formatted_address" : "Thailand",
         "geometry" : {
            "bounds" : {
               "northeast" : {
                  "lat" : 20.465143,
                  "lng" : 105.636812
               },
               "southwest" : {
                  "lat" : 5.613038,
                  "lng" : 97.343396
               }
            },
            "location" : {
               "lat" : 15.870032,
               "lng" : 100.992541
            },
            "location_type" : "APPROXIMATE",
            "viewport" : {
               "northeast" : {
                  "lat" : 20.465143,
                  "lng" : 105.636812
               },
               "southwest" : {
                  "lat" : 5.613038,
                  "lng" : 97.343396
               }
            }
         },
         "place_id" : "ChIJsU1CR_eNTTARAuhXB4gs154",
         "types" : [ "country", "political" ]
      }
   ],
   "status" : "OK"
}
